Node,Node_Code,Node_Name,Regular_Demand,Critical_Demand,Unmet_Regular,Unmet_Critical,Generation_Capacity,Longitude,Latitude
0,G01,MAYAGUEZ PLANTA,0,0,0,0,220,-67.15951985,18.21730348
1,G02,CAMBALACHE,0,0,0,0,241.5,-66.23208154,17.94830796
2,G03,PALO SECO,0,0,0,0,558,-66.15189057,17.94284642
3,G04,SJSP,0,0,0,0,600,-66.69661208,18.46710652
4,G05,AES,0,0,0,0,454,-66.1799565,18.46787984
5,G06,Complejo Aguirre,0,0,0,0,1462,-66.1041211,18.42477626
6,G07,ECOELECTRICA,0,0,0,0,507,-66.75528882,17.97736681
7,G08,COSTA SUR,0,0,0,0,862,-66.75311945,17.99813125
8,T01,,0,0,0,0,0,-67.14679812,18.23534233
9,T02,,0,0,0,0,0,-67.03533406,18.46456372
10,T03,,0,0,0,0,0,-66.69640727,18.46580172
11,T04,,0,0,0,0,0,-66.4553973,18.43114347
12,T05,,0,0,0,0,0,-66.13881224,18.39515866
13,T06,,0,0,0,0,0,-66.10570383,18.24508225
14,T07,,0,0,0,0,0,-65.97989457,18.3919427
15,T08,,0,0,0,0,0,-65.82363711,18.10407236
16,T09,,0,0,0,0,0,-66.14935633,17.94781858
17,T10,,0,0,0,0,0,-66.23086274,17.95103363
18,T11,,0,0,0,0,0,-66.75529023,17.97753566
19,T12,,0,0,0,0,0,-66.75212007,18.01028406
20,D01,,0,0,0,0,0,-67.15360217,18.40163766
21,D02,,0,0,0,0,0,-67.15168898,18.29545479
22,D03,,0,0,0,0,0,-67.14883279,18.12348774
23,D04,,0,0,0,0,0,-67.14846132,18.21126597
24,D05,,0,0,0,0,0,-67.05066668,18.11270664
25,D06,,0,0,0,0,0,-66.97720872,18.32726438
26,D07,,0,0,0,0,0,-66.89688199,17.96561675
27,D08,,0,0,0,0,0,-66.79467616,18.44337213
28,D09,,0,0,0,0,0,-66.7147514,18.43441941
29,D10,,0,0,0,0,0,-66.66367776,18.33160823
30,D11,,0,0,0,0,0,-66.64299378,18.29433131
31,D12,,0,0,0,0,0,-66.6423223,18.02017834
32,D13,,0,0,0,0,0,-66.63555382,18.42556831
33,D14,,0,0,0,0,0,-66.60351837,17.98453181
34,D15,,0,0,0,0,0,-66.5438864,18.41532362
35,D16,,0,0,0,0,0,-66.50439744,18.08892532
36,D17,,0,0,0,0,0,-66.44852619,18.16126586
37,D18,,0,0,0,0,0,-66.39125424,18.44358103
38,D19,,0,0,0,0,0,-66.36922895,18.0199475
39,D20,,0,0,0,0,0,-66.32045492,18.18721426
40,D21,,0,0,0,0,0,-66.26831795,18.41630245
41,D22,,0,0,0,0,0,-66.20976539,18.19864975
42,D23,,0,0,0,0,0,-66.19146335,18.41464533
43,D24,,0,0,0,0,0,-66.17545353,18.11203734
44,D25,,0,0,0,0,0,-66.14221752,18.45865841
45,D26,,0,0,0,0,0,-66.10856814,17.97485715
46,D27,,0,0,0,0,0,-66.09832778,18.416732
47,D28,,0,0,0,0,0,-66.09104779,18.36354463
48,D29,,0,0,0,0,0,-66.0776134,18.44399477
49,D30,,0,0,0,0,0,-66.06776712,18.42504773
50,D31,,0,0,0,0,0,-66.0368417,18.23714357
51,D32,,0,0,0,0,0,-66.03510001,18.42166395
52,D33,,0,0,0,0,0,-66.01270013,18.41129378
53,D34,,0,0,0,0,0,-65.91511823,18.22492333
54,D35,,0,0,0,0,0,-65.90853083,18.37187139
55,D36,,0,0,0,0,0,-65.89751096,18.01210069
56,D37,,0,0,0,0,0,-65.86045591,18.05823357
57,D38,,0,0,0,0,0,-65.8431895,18.15358383
58,D39,,0,0,0,0,0,-65.78451836,18.2405695
59,D40,,0,0,0,0,0,-65.7701777,18.36384475
60,D41,,0,0,0,0,0,-65.66698298,18.2310395
61,D42,,0,0,0,0,0,-65.6436868,18.32461468
62,M01,Adjuntas,5.78,2.39,0,0,0,-66.75395828,18.1797409
63,M02,Aguada,12.54,3.77,0,0,0,-67.1749995,18.360544
64,M03,Aguadilla,22.43,29.56,0,0,0,-67.12075957,18.45974546
65,M04,Aguas Buenas,8.03,2,0,0,0,-66.12733446,18.25106537
66,M05,Aibonito,8.69,24.99,0,0,0,-66.26441514,18.13112783
67,M06,Añasco,9.73,46.8,0,0,0,-67.1206347,18.28806702
68,M07,Arecibo,33.64,48.71,0,0,0,-66.67523033,18.40688983
69,M08,Arroyo,6.05,13.01,0,0,0,-66.05634683,17.99809854
70,M09,Barceloneta,10.58,42.68,0,0,0,-66.56040947,18.4457276
71,M10,Barranquitas,9.15,0.78,0,0,0,-66.309835,18.20173365
72,M11,Bayamón,75.83,27.28,0,0,0,-66.16833122,18.34961329
73,M12,Cabo Rojo,15.61,20.53,0,0,0,-67.1569556,18.05275984
74,M13,Caguas,56.27,53.71,0,0,0,-66.05078845,18.21195026
75,M14,Camuy,10.33,9.08,0,0,0,-66.86035256,18.41905072
76,M15,Canóvanas,15,11.21,0,0,0,-65.88786598,18.32906267
77,M16,Carolina,66.01,37.94,0,0,0,-65.95704673,18.37523735
78,M17,Cataño,11.43,11.48,0,0,0,-66.13884553,18.44153142
79,M18,Cayey,16.74,43.03,0,0,0,-66.14952198,18.10290529
80,M19,Ceiba,3.91,0.29,0,0,0,-65.66683282,18.25183906
81,M20,Ciales,5.48,1.11,0,0,0,-66.51645987,18.28906413
82,M21,Cidra,13.5,20.37,0,0,0,-66.16093086,18.17371964
83,M22,Coamo,12.11,10.53,0,0,0,-66.36016612,18.09733439
84,M23,Comerío,6.18,5.07,0,0,0,-66.22180421,18.22474956
85,M24,Corozal,11.1,8.28,0,0,0,-66.32790426,18.30433189
86,M25,Dorado,13.08,14.77,0,0,0,-66.27847238,18.43698213
87,M26,Fajardo,14.01,26.71,0,0,0,-65.66905471,18.31746129
88,M27,Florida,3.85,0.52,0,0,0,-66.56020703,18.3734579
89,M28,Guánica,5.75,9.84,0,0,0,-66.91955757,17.9819724
90,M29,Guayama,16.21,24.4,0,0,0,-66.13920878,17.98846563
91,M30,Guayanilla,6.4,2.14,0,0,0,-66.79180232,18.03866545
92,M31,Guaynabo,43.2,20.24,0,0,0,-66.11404889,18.34383278
93,M32,Gurabo,14.69,17.25,0,0,0,-65.97928645,18.26642938
94,M33,Hatillo,14.19,9.1,0,0,0,-66.79647088,18.41071452
95,M34,Hormigueros,5.43,2.16,0,0,0,-67.11403923,18.13418315
96,M35,Humacao,21.94,34.3,0,0,0,-65.81050294,18.14512958
97,M36,Isabela,14.41,1.79,0,0,0,-67.00519884,18.4501469
98,M37,Jayuya,5.37,21.2,0,0,0,-66.58844759,18.21067288
99,M38,Juana Díaz,15.6,37.29,0,0,0,-66.49320689,18.04331961
100,M39,Juncos,13.17,59.41,0,0,0,-65.90888193,18.22357794
101,M40,Lajas,7.68,12.72,0,0,0,-67.04060889,18.01149445
102,M41,Lares,9.53,2.2,0,0,0,-66.86677876,18.26868637
103,M42,Las Marías,3.1,8.19,0,0,0,-66.9834163,18.23709408
104,M43,Las Piedras,13,35.76,0,0,0,-65.86928524,18.18759821
105,M44,Loiza,8.17,2.3,0,0,0,-65.91083651,18.4249099
106,M45,Luquillo,6.06,1.84,0,0,0,-65.72490904,18.34314284
107,M46,Manatí,16.7,27.89,0,0,0,-66.49025467,18.42070968
108,M47,Maricao,2.13,3.72,0,0,0,-66.94229322,18.17209102
109,M48,Maunabo,3.74,0.18,0,0,0,-65.9197389,18.00985431
110,M49,Mayagüez,35.9,34.49,0,0,0,-67.10915479,18.20787881
111,M50,Moca,11.72,10.93,0,0,0,-67.08076535,18.37797549
112,M51,Morovis,9.45,2.36,0,0,0,-66.42030889,18.31708346
113,M52,Naguabo,7.73,3.64,0,0,0,-65.75360898,18.23037126
114,M53,Naranjito,9,1.33,0,0,0,-66.2525473,18.28843721
115,M54,Orocovis,7.25,7.76,0,0,0,-66.43401567,18.21491564
116,M55,Patillas,5.56,1.01,0,0,0,-66.01231571,18.03180977
117,M56,Peñuelas,7.24,2.8,0,0,0,-66.72141731,18.06070089
118,M57,Ponce,62.93,71.55,0,0,0,-66.61458573,18.06061079
119,M58,Quebradillas,7.51,1,0,0,0,-66.92603196,18.43974249
120,M59,Rincón,4.56,1.59,0,0,0,-67.22674612,18.32312773
121,M60,Rio Grande,16.29,4.14,0,0,0,-65.81356603,18.34670324
122,M61,Sabana Grande,7.6,8.16,0,0,0,-66.94331028,18.08364228
123,M62,Salinas,9.62,5.38,0,0,0,-66.25503056,18.00718761
124,M63,San Germán,12.75,28.37,0,0,0,-67.03842376,18.11111714
125,M64,San Juan,207.52,38.09,0,0,0,-66.06327758,18.39078636
126,M65,San Lorenzo,12.36,29.53,0,0,0,-65.97645037,18.1480369
127,M66,San Sebastián,12.8,2.77,0,0,0,-66.97124375,18.32874355
128,M67,Santa Isabel,8.43,22.88,0,0,0,-66.38856482,17.99431142
129,M68,Toa Alta,20.76,3.01,0,0,0,-66.24641765,18.36254026
130,M69,Toa Baja,27.95,19.08,0,0,0,-66.21206461,18.43235471
131,M70,Trujillo Alto,23.49,4.67,0,0,0,-65.99911498,18.33632452
132,M71,Utuado,9.88,2.12,0,0,0,-66.70247416,18.27102907
133,M72,Vega Alta,12.21,7.54,0,0,0,-66.33720532,18.40948975
134,M73,Vega Baja,18.42,42.1,0,0,0,-66.39792358,18.4284746
135,M74,Villalba,7.91,25.58,0,0,0,-66.47281302,18.12816866
136,M75,Yabucoa,10.93,3.43,0,0,0,-65.89631163,18.07047987
137,M76,Yauco,13.02,9.85,0,0,0,-66.85827536,18.07975142
